City_ID,City,Cloudiness,Country,Date,Humidity,Lat,Lng,Max Temp,Wind Speed
0,albany,75,US,1531601460,45,42.65,-73.75,87.8,6.93
1,jamestown,0,AU,1531602141,70,-33.21,138.6,35.67,9.28
2,llanes,0,ES,1531602386,88,43.42,-4.75,62.13,0.89
3,neiba,20,DO,1531598400,62,18.49,-71.42,89.6,20.8
4,mataura,24,NZ,1531602387,81,-46.19,168.86,41.7,17.9
5,nikolskoye,0,RU,1531600200,64,59.7,30.79,68.0,4.47
6,tiksi,0,RU,1531602387,70,71.64,128.87,48.54,5.37
7,puerto ayora,75,EC,1531598400,69,-0.74,-90.35,78.8,12.75
8,hilo,75,US,1531598160,74,19.71,-155.08,80.6,4.7
9,longyearbyen,75,NO,1531601400,86,78.22,15.63,41.0,12.75
10,thompson,75,CA,1531599960,78,55.74,-97.86,71.6,4.7
11,namatanai,80,PG,1531602388,100,-3.66,152.44,79.05,4.59
12,narsaq,40,GL,1531601400,51,60.91,-46.05,60.8,8.05
13,bredasdorp,64,ZA,1531598400,86,-34.53,20.04,39.2,3.36
14,shingu,0,JP,1531602389,97,33.72,135.99,79.32,5.37
15,rikitea,88,PF,1531602389,98,-23.12,-134.97,75.9,17.0
16,new norfolk,0,AU,1531598400,93,-42.78,147.06,37.4,1.12
17,upernavik,8,GL,1531602390,100,72.79,-56.15,35.31,6.49
18,moron,56,VE,1531602391,69,10.49,-68.2,80.67,4.25
19,sarakhs,0,TM,1531598400,24,36.54,61.16,89.6,16.11
20,yellowknife,90,CA,1531598400,76,62.45,-114.38,55.4,13.87
21,cape town,0,ZA,1531598400,66,-33.93,18.42,53.6,11.41
22,ushuaia,75,AR,1531598400,74,-54.81,-68.31,35.6,21.92
23,cap malheureux,20,MU,1531598400,68,-19.98,57.61,69.8,6.93
24,barrow,0,AR,1531602392,44,-38.31,-60.23,61.77,16.55
25,kavieng,76,PG,1531602392,100,-2.57,150.8,79.32,4.59
26,carnarvon,0,ZA,1531602392,92,-30.97,22.13,34.14,12.53
27,springdale,75,US,1531598280,41,36.19,-94.13,93.2,10.29
28,hit,0,IQ,1531602393,25,33.64,42.83,83.55,5.93
29,lagoa,0,PT,1531600200,88,37.14,-8.45,66.2,16.11
30,saldanha,0,PT,1531602394,48,41.42,-6.55,70.86,6.82
31,lebu,20,ET,1531602394,93,8.96,38.73,45.93,3.13
32,olinda,90,EC,1531598400,65,-2.03,-79.75,78.8,9.17
33,hobart,0,AU,1531598400,93,-42.88,147.33,37.4,1.12
34,salalah,90,OM,1531597800,94,17.01,54.1,78.8,8.05
35,chokurdakh,0,RU,1531602395,86,70.62,147.9,43.23,13.31
36,gravdal,48,NO,1531601400,82,59.79,5.78,57.2,5.82
37,saint-philippe,75,CA,1531601700,61,45.36,-73.48,82.4,6.93
38,kodiak,40,US,1531598580,78,39.95,-94.76,82.4,5.82
39,nouadhibou,44,MR,1531598400,73,20.93,-17.03,71.6,20.8
40,qaanaaq,68,GL,1531602397,97,77.48,-69.36,35.4,4.03
41,atuona,64,PF,1531602397,100,-9.8,-139.03,79.77,17.45
42,grindavik,75,IS,1531600200,87,63.84,-22.43,53.6,6.93
43,hermanus,36,ZA,1531602398,82,-34.42,19.24,48.45,5.14
44,trairi,0,BR,1531602398,100,-3.28,-39.27,79.5,18.9
45,mar del plata,44,AR,1531602398,100,-46.43,-67.52,32.97,9.62
46,jalu,0,LY,1531602398,28,29.03,21.55,87.42,15.1
47,kahului,40,US,1531598760,62,20.89,-156.47,86.0,16.11
48,ancud,92,CL,1531602399,84,-41.87,-73.83,48.9,10.63
49,pandan,92,PH,1531602399,100,11.72,122.09,81.03,15.99
50,novouzensk,0,RU,1531602399,44,50.46,48.14,74.55,9.73
51,jaisalmer,44,IN,1531602381,58,26.91,70.91,88.86,12.3
52,airai,0,TL,1531602400,87,-8.93,125.41,57.27,2.13
53,bluff,0,AU,1531602400,74,-23.58,149.07,32.79,3.02
54,butaritari,80,KI,1531602401,100,3.07,172.79,82.65,13.76
55,goderich,76,CA,1531602401,69,43.74,-81.71,75.99,6.93
56,alyangula,0,AU,1531602401,100,-13.85,136.42,71.94,9.62
57,punta arenas,0,CL,1531598400,55,-53.16,-70.91,39.2,8.05
58,buta,44,CD,1531602402,96,2.79,24.73,70.86,2.35
59,texarkana,1,US,1531597980,52,33.44,-94.04,91.4,6.93
60,busselton,80,AU,1531602402,100,-33.64,115.35,58.08,19.35
61,san patricio,0,PY,1531602402,55,-26.98,-56.83,78.87,6.93
62,fare,64,PF,1531602403,100,-16.7,-151.02,77.07,11.41
63,mahebourg,20,MU,1531598400,68,-20.41,57.7,69.8,6.93
64,hervey bay,20,AU,1531602403,100,-25.3,152.85,57.72,4.47
65,torbay,90,CA,1531598400,100,47.66,-52.73,51.8,6.93
66,chuy,20,UY,1531602404,85,-33.69,-53.46,59.88,10.63
67,ribeira grande,40,PT,1531600200,73,38.52,-28.7,73.4,9.17
68,bandarbeyla,88,SO,1531602404,85,9.49,50.81,78.24,34.11
69,hobyo,32,SO,1531602405,82,5.35,48.53,75.9,23.6
70,georgetown,75,GY,1531598400,62,6.8,-58.16,87.8,13.87
71,vila franca do campo,75,PT,1531600200,77,37.72,-25.43,69.8,10.29
72,hashtrud,8,IR,1531602406,30,37.48,47.05,71.94,6.38
73,gornopravdinsk,0,RU,1531602406,54,60.06,69.92,61.05,5.93
74,jagdalpur,92,IN,1531602406,98,19.09,82.02,70.32,7.27
75,dingle,80,PH,1531602407,90,11.0,122.67,76.8,4.7
76,bestobe,44,KZ,1531602407,98,52.5,73.1,63.93,5.48
77,faanui,56,PF,1531602407,100,-16.48,-151.75,78.42,12.41
78,victoria,75,BN,1531598400,88,5.28,115.24,80.6,2.24
79,provideniya,0,RU,1531602408,97,64.42,-173.23,44.58,8.72
80,sibolga,92,ID,1531602408,100,1.74,98.78,68.97,1.9
81,kavaratti,44,IN,1531602409,100,10.57,72.64,81.21,28.3
82,santiago,0,CL,1531602000,72,-33.44,-70.65,64.4,10.29
83,kapaa,90,US,1531601100,88,22.08,-159.32,77.0,5.82
84,hambantota,56,LK,1531602410,99,6.12,81.12,79.95,17.45
85,pahalgam,24,IN,1531602165,86,34.03,75.33,31.08,2.13
86,port elizabeth,1,US,1531601700,45,39.31,-74.98,89.6,8.05
87,tasiilaq,0,GL,1531601400,57,65.61,-37.64,51.8,6.93
88,toora-khem,64,RU,1531602411,90,52.47,96.11,53.76,2.68
89,bhadohi,8,IN,1531602411,97,25.39,82.57,77.79,2.57
90,severo-kurilsk,48,RU,1531602415,99,50.68,156.12,48.63,3.69
91,arraial do cabo,0,BR,1531598400,69,-22.97,-42.02,73.4,4.7
92,rocha,24,UY,1531602415,67,-34.48,-54.34,61.68,10.96
93,inhambane,36,MZ,1531602416,100,-23.87,35.38,66.81,5.03
94,mamou,92,GN,1531602416,98,10.37,-12.08,71.31,3.91
95,unecha,0,RU,1531602416,76,52.85,32.69,62.85,4.36
96,kondinskoye,0,RU,1531602416,57,59.65,67.41,61.95,6.82
97,geraldton,40,CA,1531598400,37,49.72,-86.95,86.0,6.93
98,port alfred,92,ZA,1531602417,100,-33.59,26.89,56.64,9.73
99,man,80,CI,1531602417,90,7.41,-7.55,73.92,7.61
100,lufilufi,40,WS,1531598400,78,-13.87,-171.6,82.4,5.82
101,fujin,12,CN,1531602418,98,47.24,132.03,68.88,4.59
102,tubuala,75,PA,1531599360,66,9.52,-79.03,87.8,6.93
103,vaini,92,IN,1531602419,98,15.34,74.49,69.96,8.16
104,nanortalik,0,GL,1531602419,91,60.14,-45.24,40.26,7.94
105,kidal,64,ML,1531602420,16,18.44,1.41,93.09,10.51
106,sioux lookout,75,CA,1531598400,38,50.1,-91.92,87.8,6.93
107,horta,0,ES,1531602000,50,41.43,2.16,77.0,4.7
108,warri,68,NG,1531602420,95,5.52,5.75,75.09,6.6
109,hithadhoo,92,MV,1531602421,100,-0.6,73.08,83.28,13.42
110,leningradskiy,92,RU,1531602421,99,69.38,178.42,33.06,7.83
111,dikson,88,RU,1531602422,100,73.51,80.55,39.45,3.8
112,kaitangata,56,NZ,1531602422,90,-46.28,169.85,46.11,21.25
113,celestun,0,MX,1531602388,92,20.87,-90.4,85.08,19.91
114,port hardy,5,CA,1531598400,82,50.7,-127.42,57.2,5.82
115,saskylakh,68,RU,1531602422,90,71.97,114.09,47.19,11.74
116,castro,92,CL,1531602423,100,-42.48,-73.76,46.2,5.7
117,ankazoabo,20,MG,1531602423,81,-22.29,44.51,59.43,6.38
118,navrongo,0,GH,1531602424,64,10.89,-1.09,84.45,7.49
119,rimbey,40,CA,1531598400,51,52.64,-114.24,62.6,16.11
120,avarua,75,CK,1531598400,73,-21.21,-159.78,75.2,9.17
121,sassandra,92,CI,1531602425,100,4.95,-6.09,75.9,9.62
122,colares,40,PT,1531600200,82,38.8,-9.45,68.0,10.29
123,drayton valley,0,CA,1531602425,55,53.22,-114.98,64.47,15.88
124,san cristobal,75,EC,1531598400,59,-0.39,-78.55,62.6,21.92
125,tuktoyaktuk,20,CA,1531598400,43,69.44,-133.03,69.8,13.87
126,jasrana,68,IN,1531602426,93,27.24,78.65,80.4,2.91
127,sibu,75,MY,1531598400,94,2.29,111.83,75.2,1.34
128,yumen,0,CN,1531602427,48,40.29,97.04,60.6,7.83
129,pascagoula,1,US,1531601580,59,30.37,-88.56,93.2,8.05
130,ariguani,32,CO,1531602427,39,10.25,-74.0,93.72,3.24
131,luderitz,0,NA,1531602428,51,-26.65,15.16,61.68,15.99
132,barcs,68,HR,1531602428,87,45.96,17.46,69.06,2.91
133,lavrentiya,68,RU,1531602428,88,65.58,-170.99,45.3,1.34
134,zavetnoye,32,RU,1531602429,50,47.12,43.89,77.25,4.36
135,yellandu,92,IN,1531602429,98,17.59,80.32,72.93,9.62
136,east london,92,ZA,1531602429,100,-33.02,27.91,58.8,17.45
137,shache,0,CN,1531602430,41,38.42,77.24,70.32,4.14
138,mehamn,44,NO,1531602430,80,71.03,27.85,52.32,3.91
139,ilheus,40,BR,1531598400,78,-14.79,-39.05,77.0,3.36
140,smirnykh,100,RU,1531602431,100,49.74,142.83,48.9,5.7
141,sergeyevka,0,KZ,1531602431,68,53.88,67.42,69.42,13.76
142,paka,0,HR,1531602000,88,45.29,18.06,66.2,4.7
143,guerrero negro,12,MX,1531602431,48,27.97,-114.04,83.28,11.41
144,bulolo,76,PG,1531602432,98,-7.2,146.64,62.4,0.22
145,kungurtug,88,RU,1531602432,100,50.6,97.53,51.33,2.57
146,berlevag,0,NO,1531602432,88,70.86,29.09,49.44,4.14
147,ilulissat,90,GL,1531601400,86,69.22,-51.1,41.0,4.7
148,batemans bay,0,AU,1531602433,100,-35.71,150.18,36.75,4.36
149,esperance,40,TT,1531598400,66,10.24,-61.45,86.0,11.41
150,cherskiy,64,RU,1531602433,71,68.75,161.3,47.1,5.7
151,imbituba,0,BR,1531598400,77,-28.24,-48.67,66.2,6.93
152,amparafaravola,24,MG,1531602434,96,-17.68,48.22,54.57,8.5
153,vicar,8,ES,1531602000,88,36.83,-2.64,71.6,3.36
154,grand island,1,US,1531601700,51,40.92,-98.34,84.2,4.7
155,anito,68,PH,1531602435,99,12.45,125.29,83.91,14.65
156,dzhebariki-khaya,92,RU,1531602435,100,62.22,135.8,60.96,5.93
157,sao joao da barra,20,BR,1531598400,65,-21.64,-41.05,77.0,9.17
158,maragogi,0,BR,1531602436,83,-9.01,-35.22,73.65,6.93
159,gizo,75,IL,1531600320,74,31.8,34.94,82.4,8.05
160,varhaug,0,NO,1531601400,76,58.61,5.65,57.2,2.24
161,oranjestad,20,AW,1531598400,70,12.52,-70.03,86.0,19.46
162,sumbe,12,AO,1531602437,100,-11.2,13.84,67.08,6.38
163,tezu,32,IN,1531602437,85,27.93,96.16,69.51,1.68
164,ler,40,NO,1531601400,82,63.2,10.3,57.2,2.24
165,cidreira,0,BR,1531602438,82,-30.17,-50.22,65.73,4.47
166,te anau,8,NZ,1531602303,76,-45.41,167.72,22.08,2.35
167,tuatapere,8,NZ,1531602438,100,-46.13,167.69,39.45,6.82
168,mount gambier,20,AU,1531602439,95,-37.83,140.78,43.32,4.7
169,harper,40,US,1531601700,32,30.3,-99.24,98.6,12.75
170,san juan,40,PR,1531598160,83,18.47,-66.12,82.4,13.87
171,khatanga,20,RU,1531602441,72,71.98,102.47,47.46,8.39
172,glendive,1,US,1531600500,26,47.11,-104.71,91.4,19.46
173,makakilo city,1,US,1531598220,62,21.35,-158.09,86.0,8.05
174,vista hermosa,20,MX,1531597200,63,14.92,-92.27,91.4,5.82
175,ponta do sol,0,BR,1531602442,55,-20.63,-46.0,69.6,2.8
176,bermejo,8,AR,1531602442,65,-22.73,-64.34,74.01,2.01
177,sinop,8,TR,1531602443,90,42.03,35.15,78.06,19.91
178,bela,24,PK,1531602443,79,26.23,66.31,79.95,3.13
179,keti bandar,44,PK,1531602444,98,24.14,67.45,83.28,15.88
180,mongo,24,CF,1531602444,96,4.83,22.92,70.68,4.03
181,bambous virieux,20,MU,1531598400,68,-20.34,57.76,69.8,6.93
182,northam,20,GB,1531601400,60,51.04,-4.21,69.8,6.93
183,inta,88,RU,1531602445,87,66.04,60.13,62.22,2.13
184,nara,0,JP,1531600200,88,34.68,135.8,80.6,2.24
185,aykhal,92,RU,1531602445,98,65.95,111.51,48.27,6.38
186,safford,1,US,1531597860,42,32.83,-109.71,86.0,5.82
187,capao da canoa,0,BR,1531602446,90,-29.75,-50.01,63.12,14.09
188,butterworth,75,MY,1531598400,83,5.4,100.37,80.6,2.24
189,kibala,20,TD,1531598400,61,9.11,18.35,80.6,4.7
190,zabol,0,IR,1531598400,14,31.03,61.49,91.4,9.17
191,quatre cocos,20,MU,1531598400,68,-20.21,57.76,69.8,6.93
192,talnakh,0,RU,1531602447,71,69.49,88.39,45.57,5.59
193,mbini,40,GQ,1531598400,94,1.58,9.62,77.0,6.93
194,cabo san lucas,5,MX,1531597680,38,22.89,-109.91,95.0,10.29
195,havoysund,56,NO,1531601400,93,71.0,24.66,46.4,6.93
196,komsomolskiy,12,RU,1531602448,62,67.55,63.78,61.5,9.73
197,hazorasp,0,UZ,1531598400,26,41.32,61.08,84.2,11.41
198,saint george,20,GR,1531601400,64,39.45,22.34,73.4,4.7
199,hirara,80,JP,1531602449,98,24.8,125.28,82.11,13.98
200,morgan city,40,US,1531601220,70,29.7,-91.21,89.6,5.82
201,presidencia roque saenz pena,0,AR,1531602449,49,-26.79,-60.44,82.47,16.55
202,barabinsk,0,RU,1531602449,62,55.35,78.35,61.05,13.76
203,flinders,0,AU,1531598400,100,-34.58,150.85,41.0,12.75
204,sambava,44,MG,1531602450,100,-14.27,50.17,73.38,19.46
205,rawson,92,AR,1531602450,80,-43.3,-65.11,44.76,11.63
206,paamiut,0,GL,1531602451,87,61.99,-49.67,43.95,11.74
207,itarema,0,BR,1531602361,57,-2.92,-39.92,82.47,15.21
208,shenjiamen,88,CN,1531602451,92,29.96,122.3,80.4,13.98
209,piotrkow trybunalski,0,PL,1531602000,93,51.41,19.7,62.6,4.7
210,lumeje,0,AO,1531602452,39,-11.56,20.78,56.82,5.82
211,moisakula,32,EE,1531602452,82,58.09,25.19,69.6,4.81
212,guantanamo,75,BO,1531598400,51,-16.14,-62.05,82.4,13.87
213,yaguaron,0,PY,1531602000,57,-25.6,-57.3,80.6,8.05
214,kloulklubed,90,PW,1531598040,83,7.04,134.26,82.4,8.05
215,alice springs,0,AU,1531600200,27,-23.7,133.88,37.4,3.36
216,hay river,75,CA,1531598400,87,60.82,-115.79,53.6,6.93
217,marawi,64,PH,1531602453,98,8.0,124.29,68.34,2.46
218,mayo,75,CA,1531598400,28,63.59,-135.9,68.0,9.17
219,woodward,1,US,1531601700,36,36.43,-99.39,93.2,10.29
220,qaracala,0,AZ,1531602454,80,39.81,48.95,82.38,6.38
221,mahibadhoo,24,MV,1531602454,100,3.78,72.97,83.46,6.04
222,periyapatti,88,IN,1531602455,80,11.22,78.15,75.45,10.63
223,port lincoln,64,AU,1531602455,100,-34.72,135.86,51.78,12.41
224,tautira,40,PF,1531600200,74,-17.73,-149.15,80.6,10.29
225,rylsk,8,RU,1531602455,95,51.57,34.68,63.93,4.25
226,yemelyanovo,32,RU,1531600200,93,56.17,92.69,59.0,2.24
227,puerto escondido,75,MX,1531597440,59,15.86,-97.07,89.6,8.05
228,vila do maio,20,CV,1531598400,78,15.13,-23.22,77.0,14.99
229,xichang,92,CN,1531602457,100,27.88,102.25,56.82,1.57
230,fayetteville,75,US,1531598280,52,36.06,-94.16,93.2,9.17
231,sitka,24,US,1531602457,62,37.17,-99.65,88.77,11.41
232,ahipara,92,NZ,1531602458,100,-35.17,173.16,57.18,11.63
233,margate,0,AU,1531598400,93,-43.03,147.26,37.4,1.12
234,loukhi,24,RU,1531602458,49,66.08,33.04,66.54,6.04
235,kudahuvadhoo,68,MV,1531602458,100,2.67,72.89,80.13,6.04
236,norman wells,20,CA,1531598400,37,65.28,-126.83,69.8,17.22
237,souillac,0,FR,1531602000,47,45.6,-0.6,78.8,6.04
238,san andres,64,PH,1531602460,100,13.32,122.68,81.93,20.24
239,rio de janeiro,0,BR,1531598400,83,-22.91,-43.21,78.8,11.41
240,avera,75,US,1531600500,55,33.19,-82.53,91.4,6.93
241,bethel,90,US,1531597980,76,60.79,-161.76,51.8,10.29
242,vestmannaeyjar,92,IS,1531602461,90,63.44,-20.27,53.58,8.95
243,rio gallegos,0,AR,1531598400,64,-51.62,-69.22,37.4,11.41
244,shimoda,0,JP,1531602462,95,34.7,138.93,79.23,4.14
245,pochutla,75,MX,1531597740,46,15.74,-96.47,93.2,11.41
246,tokur,68,RU,1531602462,95,53.13,132.9,58.71,2.68
247,aksu,0,KZ,1531600200,93,52.04,76.93,64.4,11.18
248,humaita,0,AR,1531598400,9,-24.93,-65.37,82.4,3.36
249,aste,20,IT,1531599600,61,45.79,11.1,77.0,10.29
250,ambon,0,FR,1531602000,53,47.55,-2.56,73.4,9.17
251,niteroi,0,BR,1531598400,60,-29.95,-51.16,77.0,3.36
252,seredeyskiy,76,RU,1531602464,89,54.05,35.23,65.46,3.58
253,chipata,0,ZM,1531602465,75,-13.64,32.65,60.87,9.06
254,alofi,75,NU,1531598400,83,-19.06,-169.92,77.0,10.29
255,general roca,0,AR,1531598400,28,-39.03,-67.58,59.0,10.29
256,yingkou,88,CN,1531602300,98,40.67,122.24,74.19,6.26
257,san jose,92,PH,1531602467,100,15.79,120.99,71.49,1.23
258,pavlovsk,36,RU,1531600200,93,53.31,82.99,64.4,6.71
259,barstow,1,US,1531601700,25,31.46,-103.39,98.6,9.17
260,dingzhou,68,CN,1531598400,100,38.51,115.0,77.0,4.59
261,alice,40,US,1531601760,52,27.75,-98.07,96.8,17.22
262,khandyga,92,RU,1531602468,100,62.65,135.58,60.96,5.93
263,berestechko,92,UA,1531602469,94,50.36,25.12,63.12,11.97
264,brigantine,1,US,1531601760,33,39.41,-74.36,91.4,12.75
265,buenaventura,88,CO,1531602469,100,3.89,-77.07,71.31,2.57
266,lakatoro,12,VU,1531602469,95,-16.11,167.42,77.52,7.27
267,wahiawa,20,US,1531598220,69,21.5,-158.02,86.0,5.82
268,dajal,68,PK,1531602470,53,29.56,70.38,91.74,4.7
269,surt,0,LY,1531602470,98,31.21,16.59,75.18,5.26
270,arman,90,RU,1531598400,93,59.7,150.17,51.8,4.47
271,naze,75,NG,1531598400,100,5.43,7.07,75.2,2.24
272,sanjwal,75,PK,1531598400,74,33.76,72.43,87.8,11.41
273,matara,0,PE,1531602471,48,-13.74,-72.9,52.23,2.35
274,kibre mengist,92,ET,1531602472,99,5.87,38.99,58.89,2.35
275,abu samrah,0,SY,1531602472,56,35.3,37.18,78.33,13.53
276,sinnamary,64,GF,1531602472,97,5.38,-52.96,81.3,12.53
277,marzuq,100,YE,1531602472,16,14.4,46.47,87.51,6.38
278,jega,12,NG,1531602472,76,12.22,4.38,81.12,4.7
279,barra,0,BR,1531602471,40,-11.09,-43.14,82.02,7.38
280,teyateyaneng,0,LS,1531602473,73,-29.15,27.74,23.07,2.46
281,dongying,64,CN,1531602473,90,37.43,118.67,80.4,6.93
282,ishigaki,92,JP,1531602473,100,24.34,124.16,80.67,11.52
283,jiwani,32,PK,1531602474,97,25.05,61.74,81.48,5.59
284,saint-joseph,0,FR,1531602000,64,43.56,6.97,78.8,3.36
285,porto novo,0,BR,1531602000,43,-23.68,-45.44,73.4,2.24
286,mirabad,0,IR,1531602475,26,28.27,61.33,67.35,3.24
287,nome,40,US,1531601700,52,30.04,-94.42,93.2,5.82
288,grand-santi,12,GF,1531602476,42,4.27,-54.38,90.48,2.91
289,san luis,0,AR,1531602476,37,-33.3,-66.34,70.32,2.91
290,istok,92,PL,1531602477,100,52.66,23.48,61.59,9.95
291,tessalit,0,ML,1531602477,13,20.2,1.01,91.2,11.41
292,constitucion,40,MX,1531597380,24,23.99,-104.67,80.6,4.47
293,saint-augustin,0,FR,1531602000,57,44.83,-0.61,78.8,8.05
294,richards bay,76,ZA,1531602478,75,-28.77,32.06,59.07,16.78
295,namibe,0,AO,1531602478,100,-15.19,12.15,66.81,10.74
296,iturama,0,BR,1531602478,40,-19.73,-50.2,80.76,3.36
297,clarence town,0,AU,1531598400,84,-32.59,151.78,37.4,9.17
298,lorengau,88,PG,1531602479,100,-2.02,147.27,79.05,5.93
299,mount isa,0,AU,1531598400,25,-20.73,139.49,50.0,8.05
300,uberlandia,36,BR,1531602479,43,-18.92,-48.28,75.9,3.13
301,ugoofaaru,20,MV,1531602480,100,5.67,73.0,82.83,13.53
302,am timan,32,TD,1531602480,93,11.04,20.28,74.37,4.36
303,faya,20,SA,1531598400,47,18.39,42.45,77.0,4.7
304,isangel,12,VU,1531602480,98,-19.55,169.27,75.18,5.48
305,cayenne,75,GF,1531600200,78,4.94,-52.33,78.8,8.61
306,afrikanda,36,RU,1531602481,73,67.44,32.78,58.98,2.13
307,kawai,0,JP,1531600200,88,34.58,135.74,80.6,2.24
308,changji,0,CN,1531602481,90,32.07,116.17,77.52,2.8
309,bathsheba,40,BB,1531598400,70,13.22,-59.52,86.0,12.75
310,alghero,40,IT,1531599600,88,40.56,8.32,78.8,8.05
311,timra,20,SE,1531601400,77,62.49,17.33,68.0,3.36
312,kropotkin,32,RU,1531602483,70,45.43,40.58,71.67,7.38
313,bantou,44,CN,1531602483,91,26.22,117.49,70.05,2.01
314,pontianak,36,ID,1531602483,89,-0.02,109.34,80.22,8.95
315,isiro,32,CD,1531602484,94,2.77,27.62,67.17,1.9
316,lompoc,1,US,1531600500,42,34.64,-120.46,82.4,10.29
317,okhotsk,92,RU,1531602484,100,59.36,143.24,54.12,6.15
318,lalmohan,92,BD,1531602484,93,22.34,90.74,81.75,14.65
319,khulo,90,GE,1531598400,88,41.64,42.31,71.6,14.99
320,monte alegre,64,BR,1531602485,93,-2.0,-54.07,77.52,3.47
321,farafangana,76,MG,1531602485,100,-22.82,47.83,69.15,0.56
322,pisco,20,PE,1531598400,77,-13.71,-76.2,66.2,8.05
323,palauig,92,PH,1531602486,100,15.44,119.9,73.83,6.38
324,pervomayskiy,44,RU,1531602487,49,53.24,40.29,73.65,8.16
325,erenhot,68,CN,1531602487,48,43.65,111.97,73.92,11.86
326,kieta,92,PG,1531602487,100,-6.22,155.63,76.17,2.01
327,ardon,90,RU,1531598400,77,43.18,44.31,69.8,2.24
328,kem,68,UG,1531602488,97,2.68,33.77,61.86,3.58
329,muros,90,ES,1531602000,88,42.77,-9.06,66.2,5.82
330,caravelas,20,BR,1531602488,100,-17.73,-39.27,75.18,5.7
331,iralaya,40,HN,1531598400,70,15.0,-83.23,87.8,9.17
332,nanakuli,20,US,1531598220,69,21.39,-158.15,86.0,5.82
333,champerico,20,MX,1531597200,46,16.38,-93.6,89.6,5.26
334,bolshevik,75,BY,1531600200,88,54.01,27.57,62.6,4.47
335,boralday,90,KZ,1531600200,82,43.36,76.86,66.2,6.71
336,lodja,36,CD,1531602490,45,-3.52,23.6,77.34,2.68
337,mandal,68,MN,1531602490,82,48.82,106.5,54.66,3.58
338,udachnyy,92,RU,1531602490,98,66.42,112.4,48.63,4.36
339,yakeshi,32,CN,1531602491,87,49.28,120.73,59.79,7.72
340,abu dhabi,0,AE,1531598400,79,24.47,54.37,91.4,3.36
341,fairbanks,90,US,1531598280,42,64.84,-147.72,64.4,9.17
342,swarzedz,0,PL,1531602000,68,52.41,17.09,66.2,4.7
343,katsuura,0,JP,1531602492,89,33.93,134.5,75.9,1.12
344,carutapera,56,BR,1531602492,100,-1.2,-46.02,74.82,6.93
345,aklavik,40,CA,1531598400,43,68.22,-135.01,71.6,11.41
346,dharchula,100,IN,1531602493,100,29.85,80.53,56.19,0.78
347,coquimbo,76,CL,1531598400,87,-29.95,-71.34,53.6,4.7
348,rasskazovo,12,RU,1531602493,44,52.66,41.88,74.46,7.16
349,balkanabat,0,TM,1531602494,68,39.51,54.36,77.88,3.13
350,tete,0,MZ,1531602494,93,-16.16,33.59,58.35,2.68
351,bontang,48,ID,1531602494,100,0.12,117.47,79.77,9.73
352,san nicolas,56,HN,1531602495,53,14.94,-88.33,82.47,2.91
353,vila velha,0,BR,1531602000,74,-3.71,-38.6,78.8,9.17
354,taoudenni,0,ML,1531602495,8,22.68,-3.98,100.65,16.67
355,half moon bay,40,US,1531600800,82,37.46,-122.43,86.0,9.17
356,pangnirtung,80,CA,1531602496,99,66.15,-65.72,44.67,4.14
357,boali,20,CF,1531598400,88,4.81,18.11,77.0,3.91
358,areosa,0,PT,1531602000,88,41.72,-8.86,68.0,2.24
359,negombo,40,LK,1531599000,88,7.21,79.83,80.6,13.87
360,portland,20,US,1531601580,32,45.52,-122.67,86.0,10.29
361,nuuk,20,GL,1531601400,71,64.17,-51.74,55.4,9.17
362,rudnogorsk,76,RU,1531602498,87,57.27,103.75,58.53,2.35
363,winnemucca,1,US,1531601760,8,40.97,-117.74,100.4,4.7
364,honiara,20,SB,1531598400,100,-9.43,159.96,71.6,2.24
365,zhezkazgan,40,KZ,1531600200,64,47.8,67.71,68.0,8.95
366,kruisfontein,92,ZA,1531602499,100,-34.0,24.73,56.73,6.38
367,kendrapara,75,IN,1531600200,100,20.5,86.42,78.8,2.24
368,plavinas,80,LV,1531602499,80,56.62,25.73,68.07,5.59
369,amahai,92,ID,1531602499,100,-3.31,129.0,79.59,10.51
370,parvatsar,20,IN,1531602500,95,26.88,74.77,78.42,2.13
371,nikko,20,JP,1531602500,95,36.75,139.62,73.92,0.45
372,yulara,0,AU,1531598400,40,-25.24,130.99,33.8,5.82
373,lossiemouth,75,GB,1531601400,64,57.72,-3.28,68.0,6.93
374,ostrovnoy,80,RU,1531602501,48,68.05,39.51,66.27,8.39
375,nantucket,1,US,1531600500,60,41.28,-70.1,75.2,9.17
376,vardo,20,US,1531601700,46,39.62,-77.74,89.6,3.58
377,karratha,0,AU,1531602502,73,-20.74,116.85,49.35,9.28
378,tumpat,75,MY,1531598400,94,6.2,102.17,78.8,3.36
379,nouakchott,64,MR,1531602502,99,18.08,-15.98,78.15,6.38
380,chenzhou,12,CN,1531602503,92,25.81,113.03,72.66,2.57
381,davidson,1,US,1531602000,45,35.5,-80.85,91.4,3.91
382,marsh harbour,12,BS,1531602314,100,26.54,-77.06,83.46,1.68
383,xinmin,40,CN,1531600200,94,42.0,122.83,75.2,2.24
384,monkey bay,92,MW,1531602504,97,-14.08,34.91,74.28,12.75
385,klaksvik,68,FO,1531601400,100,62.23,-6.59,50.0,5.82
386,kaimganj,36,IN,1531602504,93,27.55,79.34,81.12,6.71
387,shenkursk,48,RU,1531602504,83,62.11,42.91,66.45,2.24
388,pahrump,20,US,1531601580,27,36.21,-115.98,100.4,4.7
389,sovetskiy,32,RU,1531602505,89,56.76,48.47,67.08,2.8
390,springbok,0,ZA,1531602505,45,-29.67,17.88,43.5,13.42
391,sesheke,0,NA,1531602506,66,-17.47,24.29,53.58,3.8
392,zyryanka,92,RU,1531602506,99,65.73,150.89,51.06,6.26
393,vanimo,92,PG,1531602506,100,-2.67,141.3,77.25,9.17
394,dekar,0,BW,1531602507,41,-21.53,21.93,57.45,11.07
395,samarai,88,PG,1531602507,100,-10.62,150.67,76.26,8.39
396,ormara,92,PK,1531602507,97,25.21,64.64,82.2,7.05
397,roebourne,0,AU,1531602507,73,-20.77,117.15,49.35,9.28
398,shu,0,KZ,1531602508,72,43.6,73.76,69.06,12.64
399,teya,90,MX,1531600740,48,21.05,-89.07,87.8,14.99
400,soyo,8,AO,1531602508,93,-6.13,12.37,69.96,5.14
401,muzhi,44,RU,1531602509,73,65.4,64.7,57.9,4.59
402,port-cartier,90,CA,1531598400,77,50.03,-66.88,59.0,8.05
403,ternate,90,PH,1531598400,100,14.29,120.72,78.8,3.36
404,srivardhan,92,IN,1531602510,100,18.03,73.02,74.28,10.07
405,ust-barguzin,0,RU,1531602510,82,53.41,109.03,48.0,3.13
406,christchurch,88,NZ,1531600200,100,-43.53,172.64,39.2,2.24
407,santona,20,ES,1531602000,88,43.44,-3.46,75.2,4.7
408,grand gaube,20,MU,1531598400,68,-20.01,57.66,69.8,6.93
409,broken hill,0,AU,1531602511,85,-31.97,141.45,35.22,8.84
410,atar,68,MR,1531602511,12,20.52,-13.05,101.73,9.4
411,ust-maya,32,RU,1531602511,86,60.42,134.54,67.53,6.82
412,westport,92,IE,1531602512,98,53.8,-9.52,60.87,13.98
413,palana,92,RU,1531602512,80,59.08,159.95,53.58,6.93
414,thinadhoo,32,MV,1531602512,100,0.53,72.93,81.57,9.28
415,intipuca,0,SV,1531597800,29,13.2,-88.05,102.2,5.82
416,aasiaat,24,GL,1531602513,100,68.71,-52.87,41.7,3.36
417,horizontina,0,BR,1531602376,56,-27.63,-54.31,74.37,7.05
418,shemonaikha,36,KZ,1531602514,80,50.63,81.92,64.92,2.68
419,wenling,92,CN,1531602514,97,28.38,121.38,79.23,7.38
420,atasu,36,KZ,1531602514,76,48.68,71.64,66.45,3.13
421,nurota,0,UZ,1531600200,27,40.56,65.69,87.8,6.93
422,leh,24,IN,1531602515,91,34.16,77.58,28.56,1.45
423,camacha,20,PT,1531600200,68,33.08,-16.33,69.8,8.05
424,ada,1,US,1531601580,43,47.3,-96.52,87.8,14.99
425,gat,44,SN,1531602516,71,14.69,-16.54,81.93,8.72
426,shibata,0,JP,1531602516,87,37.91,139.43,74.46,2.57
427,tura,80,IN,1531602516,98,25.52,90.21,75.36,3.36
428,road town,40,VG,1531598400,74,18.42,-64.62,87.8,8.05
429,benguela,0,AO,1531602517,100,-12.58,13.4,69.06,6.71
430,puerto cabezas,40,NI,1531598400,70,14.04,-83.39,87.8,11.41
431,cochrane,68,CL,1531602518,97,-47.25,-72.57,30.18,2.13
432,villarrica,92,CL,1531602518,100,-39.28,-72.23,40.71,5.37
433,emba,20,CY,1531602000,88,34.81,32.42,78.8,4.7
434,viedma,44,AR,1531602518,42,-40.81,-62.99,55.2,20.13
435,hailey,5,US,1531597500,25,43.52,-114.32,87.8,9.17
436,srednekolymsk,88,RU,1531602519,61,67.46,153.71,49.98,3.8
437,vite,90,ES,1531602000,88,42.89,-8.54,66.2,5.82
438,coihaique,90,CL,1531598400,84,-45.58,-72.07,39.2,5.82
439,doschatoye,0,RU,1531602520,86,55.38,42.11,65.46,2.57
440,sur,0,OM,1531602520,85,22.57,59.53,88.95,6.26
441,chumikan,92,RU,1531602520,97,54.72,135.31,51.33,4.92
442,guangyuan,48,CN,1531602521,98,32.43,105.86,67.98,1.79
443,havre-saint-pierre,40,CA,1531598400,63,50.23,-63.6,66.2,3.36
444,tuim,92,RU,1531602521,97,54.34,89.93,61.68,3.69
445,lipnita,12,RO,1531602521,69,44.1,27.6,69.42,7.05
446,monrovia,75,LR,1531600200,88,6.33,-10.8,78.8,4.14
447,ginda,92,IN,1531602522,100,30.69,78.49,60.15,1.34
448,husavik,0,CA,1531602522,45,50.56,-96.99,91.02,21.59
449,winsum,0,NL,1531601700,77,53.33,6.52,64.4,5.82
450,los reyes,12,MX,1531602523,51,20.15,-98.16,74.64,3.13
451,mahajanga,0,MG,1531598400,47,-15.72,46.32,75.2,6.93
452,kiomboi,0,TZ,1531602523,67,-4.28,34.41,64.2,6.26
453,omboue,80,GA,1531602524,100,-1.57,9.26,74.64,12.19
454,cockburn town,0,TC,1531602524,95,21.46,-71.14,83.28,17.56
455,iqaluit,90,CA,1531599000,81,63.75,-68.52,53.6,9.62
456,gazojak,0,TM,1531602524,30,41.19,61.4,86.16,12.19
457,ginir,36,ET,1531602525,80,7.14,40.71,64.2,8.61
458,vizinga,56,RU,1531602525,87,61.08,50.08,67.98,4.7
459,pontes e lacerda,0,BR,1531602525,74,-15.23,-59.33,84.9,3.36
460,terrace,40,CA,1531598400,38,54.52,-128.61,73.4,3.36
461,luanda,32,AO,1531598400,78,-8.83,13.24,71.6,9.17
462,praia,20,BR,1531598400,53,-20.25,-43.81,73.4,8.05
463,baruun-urt,92,MN,1531602527,75,46.68,113.28,59.88,4.47
464,byron bay,0,AU,1531598400,100,-28.65,153.62,41.0,5.82
465,pryazha,24,RU,1531598400,77,61.69,33.62,64.4,2.24
466,hovd,40,NO,1531601400,82,63.83,10.7,57.2,2.24
467,mareeba,75,AU,1531598400,77,-16.99,145.42,62.6,10.29
468,manavalakurichi,75,IN,1531598400,88,8.13,77.3,78.8,5.82
469,bukachacha,12,RU,1531602528,91,52.99,116.91,54.3,2.35
470,port macquarie,0,AU,1531598400,100,-31.43,152.91,37.4,4.7
471,tigil,44,RU,1531602528,72,57.8,158.67,57.0,7.38
472,umm lajj,0,SA,1531602529,100,25.02,37.27,75.81,3.8
473,beloha,8,MG,1531602529,77,-25.17,45.06,62.49,8.16
474,morgaushi,40,RU,1531600200,88,55.96,46.77,66.2,2.91
475,casino,0,AU,1531602329,79,-28.86,153.05,31.26,2.68
476,beaverlodge,40,CA,1531602000,37,55.21,-119.43,68.0,14.99
477,tynset,64,NO,1531601400,93,62.28,10.78,53.6,5.82
478,clyde river,75,CA,1531598400,93,70.47,-68.59,39.2,12.75
479,kailua,90,US,1531598220,83,21.39,-157.74,86.0,11.41
480,san quintin,44,PH,1531602531,92,17.54,120.52,72.03,3.36
481,abeche,76,TD,1531602532,48,13.83,20.83,83.73,8.5
482,doha,0,QA,1531600200,31,25.29,51.53,100.4,6.93
483,sucua,56,EC,1531602532,81,-2.46,-78.17,68.16,4.59
484,sao filipe,56,CV,1531602532,92,14.9,-24.5,77.43,10.29
485,atambua,0,ID,1531602533,100,-9.11,124.89,67.71,5.93
486,channel-port aux basques,0,CA,1531602533,96,47.57,-59.14,53.94,14.65
487,yar-sale,68,RU,1531602533,68,66.83,70.83,57.9,10.29
488,padang,20,ID,1531602534,100,-0.92,100.36,77.25,4.59
489,kafue,0,ZM,1531602534,64,-15.74,28.18,56.1,6.38
490,hargeysa,44,SO,1531602534,64,9.56,44.06,68.88,15.55
491,khadro,24,PK,1531602000,62,26.15,68.72,86.0,13.87
492,barpeta,75,IN,1531600200,94,26.33,91.01,84.2,7.16
493,evensk,92,RU,1531602535,100,61.92,159.24,49.62,6.6
494,xining,100,CN,1531602535,99,36.62,101.77,54.66,3.36
495,luwingu,0,ZM,1531602536,57,-10.26,29.92,57.27,4.36
496,gouyave,20,GD,1531598400,70,12.16,-61.73,86.0,17.22
497,kualakapuas,75,ID,1531600200,100,-3.01,114.39,73.4,2.24
498,ixtapa,40,MX,1531597380,66,20.71,-105.21,89.6,11.41
499,bayji,0,IQ,1531602537,25,34.93,43.49,83.01,3.91
500,roald,0,NO,1531601400,100,62.58,6.12,59.0,4.92
501,manzanillo,8,CU,1531602537,95,20.34,-77.12,87.96,5.37
502,trat,92,TH,1531602537,100,12.25,102.51,75.72,7.83
503,formosa do rio preto,0,BR,1531602538,48,-11.04,-45.19,76.53,5.7
504,parkes,68,AU,1531602538,100,-33.14,148.18,31.62,3.8
505,praia da vitoria,20,PT,1531598400,73,38.73,-27.07,73.4,11.97
506,waddan,0,LY,1531602539,28,29.16,16.14,80.85,10.18
507,deputatskiy,0,RU,1531602539,77,69.3,139.9,43.5,3.91
508,buraydah,0,SA,1531598400,22,26.33,43.97,98.6,17.22
509,corinth,0,GR,1531599600,48,37.94,22.93,82.4,3.36
510,tottori,0,JP,1531602541,97,35.5,134.23,71.13,2.13
511,oistins,40,BB,1531598400,70,13.07,-59.53,86.0,12.75
512,port blair,92,IN,1531602541,100,11.67,92.75,82.11,27.85
513,jinzhou,92,CN,1531602541,97,41.11,121.12,72.3,6.6
514,oroville,1,US,1531600500,32,39.51,-121.56,95.0,6.93
515,yerbogachen,76,RU,1531602542,83,61.28,108.01,61.59,3.47
516,botou,88,CN,1531602542,99,38.08,116.55,76.08,3.47
517,silopi,0,IQ,1531602542,66,37.25,42.47,70.86,2.13
518,tommot,92,RU,1531602543,99,58.97,126.27,56.82,3.36
519,gornyy,0,RU,1531602543,55,51.76,48.54,71.22,7.83
520,pelym,0,RU,1531602543,77,61.01,62.0,59.07,3.02
521,west bay,20,GB,1531601400,60,50.71,-2.76,69.8,6.93
522,malanje,0,AO,1531602544,75,-9.54,16.35,57.0,2.35
523,poum,20,MK,1531600200,68,41.28,20.71,64.4,3.36
524,solnechnyy,88,RU,1531602544,100,50.72,136.64,64.65,3.58
525,robertsport,92,LR,1531602545,100,6.75,-11.37,74.64,4.25
526,kamaishi,92,JP,1531602545,95,39.28,141.86,68.61,2.01
527,ketchikan,1,US,1531598160,55,55.34,-131.65,66.2,4.7
528,murgab,0,TM,1531602000,35,37.5,61.97,87.8,4.7
529,chernyshevskiy,80,RU,1531602546,66,63.01,112.47,58.8,3.47
